{
  "ew_bus_station": [
    { "no":"1",   "name":"台東区役所",                         "latitude":"35.712471", "longitude":"139.779651", "memo":"", "img":"./img/ueno.png" },
    { "no":"2",   "name":"上野駅上野公園",                     "latitude":"35.714383", "longitude":"139.776192", "memo":"", "img":"" },
    { "no":"3",   "name":"東京国立博物館",                     "latitude":"35.717272", "longitude":"139.775786", "memo":"", "img":"" },
    { "no":"4",   "name":"旧東京音楽学校奏楽堂",               "latitude":"35.718298", "longitude":"139.773748", "memo":"", "img":"" },
    { "no":"5-1", "name":"東京藝術大学",                       "latitude":"35.719292", "longitude":"139.771938", "memo":"", "img":"" },
    { "no":"5-2", "name":"寛永時",                             "latitude":"35.721141", "longitude":"139.773717", "memo":"", "img":"" },
    { "no":"6",   "name":"上野桜木会館",                       "latitude":"35.719769", "longitude":"139.770714", "memo":"", "img":"" },
    { "no":"7",   "name":"谷中清水町公園",                     "latitude":"35.720008", "longitude":"139.769615", "memo":"", "img":"" },
    { "no":"8",   "name":"旧吉田居酒屋",                       "latitude":"35.721066", "longitude":"139.770654", "memo":"", "img":"" },
    { "no":"9",   "name":"谷中霊園入口",                       "latitude":"35.722905", "longitude":"139.769848", "memo":"", "img":"" },
    { "no":"10",  "name":"三崎坂上",                           "latitude":"35.723701", "longitude":"139.767200", "memo":"", "img":"" },
    { "no":"11",  "name":"特養ホーム谷中入口",                 "latitude":"35.724428", "longitude":"139.764758", "memo":"", "img":"" },
    { "no":"12",  "name":"谷中銀座・よみせ通り",               "latitude":"35.726564", "longitude":"139.764479", "memo":"", "img":"" },
    { "no":"13",  "name":"千駄木駅",                           "latitude":"35.725275", "longitude":"139.763232", "memo":"", "img":"" },
    { "no":"14",  "name":"谷中小学校",                         "latitude":"35.724005", "longitude":"139.765948", "memo":"", "img":"" },
    { "no":"15",  "name":"三崎坂上",                           "latitude":"35.723721", "longitude":"139.767638", "memo":"", "img":"" },
    { "no":"16",  "name":"谷中霊園入口",                       "latitude":"35.723310", "longitude":"139.769691", "memo":"", "img":"" },
    { "no":"17",  "name":"旧吉田居酒屋",                       "latitude":"35.720883", "longitude":"139.770243", "memo":"", "img":"" },
    { "no":"18",  "name":"池之端四丁目",                       "latitude":"35.718508", "longitude":"139.768655", "memo":"", "img":"" },
    { "no":"19",  "name":"鴎外旧居跡",                         "latitude":"35.716029", "longitude":"139.769771", "memo":"", "img":"" },
    { "no":"20",  "name":"不忍池（弁天堂）",                   "latitude":"35.712251", "longitude":"139.772888", "memo":"", "img":"" },
    { "no":"21",  "name":"京成上野駅",                         "latitude":"35.710999", "longitude":"139.773922", "memo":"", "img":"" },
    { "no":"22",  "name":"上野駅上野公園",                     "latitude":"35.714440", "longitude":"139.776239", "memo":"", "img":"" },
    { "no":"23",  "name":"台東区役所",                         "latitude":"35.712471", "longitude":"139.779651", "memo":"", "img":"" },
    { "no":"24",  "name":"上野学園",                           "latitude":"35.715010", "longitude":"139.782049", "memo":"", "img":"" },
    { "no":"25",  "name":"北上野二丁目",                       "latitude":"35.715240", "longitude":"139.785142", "memo":"", "img":"" },
    { "no":"26",  "name":"松が谷",                             "latitude":"35.714728", "longitude":"139.787639", "memo":"", "img":"" },
    { "no":"27",  "name":"西浅草三丁目",                       "latitude":"35.714011", "longitude":"139.791437", "memo":"", "img":"" },
    { "no":"28",  "name":"つくばエクスプレス浅草駅",           "latitude":"35.713422", "longitude":"139.792494", "memo":"", "img":"" },
    { "no":"29",  "name":"雷門通り",                           "latitude":"35.711243", "longitude":"139.794228", "memo":"", "img":"" },
    { "no":"30",  "name":"浅草駅",                             "latitude":"35.711475", "longitude":"139.798193", "memo":"", "img":"" },
    { "no":"31",  "name":"雷門前",                             "latitude":"35.710322", "longitude":"139.796338", "memo":"", "img":"" },
    { "no":"32",  "name":"都営浅草駅",                         "latitude":"35.708896", "longitude":"139.794773", "memo":"", "img":"" },
    { "no":"33",  "name":"浅草消防署",                         "latitude":"35.707164", "longitude":"139.793670", "memo":"", "img":"" },
    { "no":"34",  "name":"南部区民事務所",                     "latitude":"35.707364", "longitude":"139.788992", "memo":"", "img":"" },
    { "no":"35",  "name":"三筋二丁目（デザイナーズビレッジ）", "latitude":"35.706109", "longitude":"139.784953", "memo":"", "img":"" },
    { "no":"36",  "name":"小島社会教育館",                     "latitude":"35.703767", "longitude":"139.781584", "memo":"", "img":"" },
    { "no":"37",  "name":"新御徒町駅",                         "latitude":"35.707345", "longitude":"139.781873", "memo":"", "img":"" },
    { "no":"38",  "name":"永寿総合病院東",                     "latitude":"35.709689", "longitude":"139.780245", "memo":"", "img":"" }
  ],
  "n_bus_station": [
    { "no":"1",   "name":"浅草駅",                               "latitude":"35.711426", "longitude":"139.798153", "memo":"", "img":"" },
    { "no":"2",   "name":"花川戸",                               "latitude":"35.713653", "longitude":"139.800303", "memo":"", "img":"" },
    { "no":"3",   "name":"隅田公園",                             "latitude":"35.716425", "longitude":"139.802797", "memo":"", "img":"" },
    { "no":"4",   "name":"リバーサイドスポーツセンター前",       "latitude":"35.718264", "longitude":"139.803897", "memo":"", "img":"" },
    { "no":"5",   "name":"今戸一丁目",                           "latitude":"35.720418", "longitude":"139.804172", "memo":"", "img":"" },
    { "no":"6",   "name":"今戸二丁目",                           "latitude":"35.722503", "longitude":"139.804389", "memo":"", "img":"" },
    { "no":"7",   "name":"橋場老人福祉館西（産業研修センター）", "latitude":"35.723603", "longitude":"139.805993", "memo":"", "img":"" },
    { "no":"8",   "name":"橋場一丁目",                           "latitude":"35.726080", "longitude":"139.805799", "memo":"", "img":"" },
    { "no":"9",   "name":"清川一丁目",                           "latitude":"35.726168", "longitude":"139.802104", "memo":"", "img":"" },
    { "no":"10",  "name":"東浅草二丁目",                         "latitude":"35.725605", "longitude":"139.799873", "memo":"", "img":"" },
    { "no":"11",  "name":"吉原大門",                             "latitude":"35.724686", "longitude":"139.797900", "memo":"", "img":"" },
    { "no":"12",  "name":"竜泉三丁目",                           "latitude":"35.726313", "longitude":"139.795706", "memo":"", "img":"" },
    { "no":"13",  "name":"三ノ輪二丁目",                         "latitude":"35.728112", "longitude":"139.794112", "memo":"", "img":"" },
    { "no":"14",  "name":"三ノ輪駅（三ノ輪福祉センター前）",     "latitude":"35.729457", "longitude":"139.792368", "memo":"", "img":"" },
    { "no":"15",  "name":"一葉記念館入口",                       "latitude":"35.725460", "longitude":"139.791105", "memo":"", "img":"" },
    { "no":"16",  "name":"竜泉一丁目",                           "latitude":"35.724686", "longitude":"139.789766", "memo":"", "img":"" },
    { "no":"17",  "name":"金杉区民館・下谷分館入口",             "latitude":"35.725015", "longitude":"139.786446", "memo":"", "img":"" },
    { "no":"18",  "name":"下谷三丁目",                           "latitude":"35.724427", "longitude":"139.785335", "memo":"", "img":"" },
    { "no":"19",  "name":"金杉通り",                             "latitude":"35.722869", "longitude":"139.783449", "memo":"", "img":"" },
    { "no":"20",  "name":"根岸三丁目",                           "latitude":"35.722203", "longitude":"139.782162", "memo":"", "img":"" },
    { "no":"21",  "name":"防災広場・根岸の里",                   "latitude":"35.723731", "longitude":"139.781839", "memo":"", "img":"" },
    { "no":"22",  "name":"入谷区民館・根岸分館（書道博物館）",   "latitude":"35.725006", "longitude":"139.777219", "memo":"", "img":"" },
    { "no":"23",  "name":"鶯谷駅北",                             "latitude":"35.722964", "longitude":"139.778955", "memo":"", "img":"" },
    { "no":"24",  "name":"鶯谷駅南",                             "latitude":"35.721054", "longitude":"139.781069", "memo":"", "img":"" },
    { "no":"25",  "name":"入谷駅入口",                           "latitude":"35.721543", "longitude":"139.784238", "memo":"", "img":"" },
    { "no":"26",  "name":"入谷ふれあい市場前",                   "latitude":"35.721215", "longitude":"139.786878", "memo":"", "img":"" },
    { "no":"27",  "name":"生涯学習センター北（金竜小学校前）",   "latitude":"35.719014", "longitude":"139.789341", "memo":"", "img":"" },
    { "no":"28",  "name":"千束二丁目",                           "latitude":"35.721342", "longitude":"139.790733", "memo":"", "img":"" },
    { "no":"29",  "name":"千束三丁目",                           "latitude":"35.721239", "longitude":"139.792531", "memo":"", "img":"" },
    { "no":"30",  "name":"台東病院",                             "latitude":"35.722596", "longitude":"139.792917", "memo":"", "img":"" },
    { "no":"31",  "name":"千束小学校前",                         "latitude":"35.720143", "longitude":"139.793764", "memo":"", "img":"" },
    { "no":"32",  "name":"浅草五丁目",                           "latitude":"35.719708", "longitude":"139.795903", "memo":"", "img":"" },
    { "no":"33",  "name":"浅草警察署前",                         "latitude":"35.719228", "longitude":"139.797820", "memo":"", "img":"" },
    { "no":"34",  "name":"浅草四丁目",                           "latitude":"35.717827", "longitude":"139.797943", "memo":"", "img":"" },
    { "no":"35",  "name":"浅草寺北",                             "latitude":"35.716100", "longitude":"139.797678", "memo":"", "img":"" },
    { "no":"36",  "name":"二天門",                               "latitude":"35.714598", "longitude":"139.798369", "memo":"", "img":"" },
    { "no":"37",  "name":"浅草松坂屋西",                         "latitude":"35.712348", "longitude":"139.797869", "memo":"", "img":"" }
  ],
  "s_bus_station": [
    { "no":"1",   "name":"上野駅",                             "latitude":"35.711910", "longitude":"139.778556", "memo":"", "img":"" },
    { "no":"2",   "name":"永寿総合病院",                       "latitude":"35.710014", "longitude":"139.778582", "memo":"", "img":"" },
    { "no":"3",   "name":"御徒町",                             "latitude":"35.707454", "longitude":"139.778436", "memo":"", "img":"" },
    { "no":"4",   "name":"新御徒町駅",                         "latitude":"35.706900", "longitude":"139.779980", "memo":"", "img":"" },
    { "no":"5",   "name":"台東三丁目",                         "latitude":"35.704730", "longitude":"139.779730", "memo":"", "img":"" },
    { "no":"6",   "name":"台東地区センター",                   "latitude":"35.701499", "longitude":"139.779343", "memo":"", "img":"" },
    { "no":"7",   "name":"三井記念病院前",                     "latitude":"35.700279", "longitude":"139.779876", "memo":"", "img":"" },
    { "no":"8",   "name":"柳北スポーツプラザ",                 "latitude":"35.699006", "longitude":"139.782408", "memo":"", "img":"" },
    { "no":"9",   "name":"浅草橋駅北",                         "latitude":"35.698865", "longitude":"139.784402", "memo":"", "img":"" },
    { "no":"10",  "name":"鳥越神社前",                         "latitude":"35.701814", "longitude":"139.785680", "memo":"", "img":"" },
    { "no":"11",  "name":"環境ふれあい館・ひまわり入口",       "latitude":"35.703131", "longitude":"139.787836", "memo":"", "img":"" },
    { "no":"12",  "name":"三筋老人福祉館東",                   "latitude":"35.705790", "longitude":"139.787898", "memo":"", "img":"" },
    { "no":"13",  "name":"南部区民事務所",                     "latitude":"35.706390", "longitude":"139.788691", "memo":"", "img":"" },
    { "no":"14",  "name":"大江戸線蔵前駅",                     "latitude":"35.706426", "longitude":"139.790631", "memo":"", "img":"" },
    { "no":"15",  "name":"田原町駅",                           "latitude":"35.709173", "longitude":"139.791177", "memo":"", "img":"" },
    { "no":"16",  "name":"浅草菊水通り",                       "latitude":"35.711672", "longitude":"139.791651", "memo":"", "img":"" },
    { "no":"17",  "name":"西浅草",                             "latitude":"35.712181", "longitude":"139.789068", "memo":"", "img":"" },
    { "no":"18",  "name":"かっぱ橋",                           "latitude":"35.714278", "longitude":"139.788790", "memo":"", "img":"" },
    { "no":"19",  "name":"生涯学習センター南",                 "latitude":"35.716398", "longitude":"139.788986", "memo":"", "img":"" },
    { "no":"20",  "name":"生涯学習センター北（金竜小学校前）", "latitude":"35.719014", "longitude":"139.789341", "memo":"", "img":"" },
    { "no":"21",  "name":"入谷地区センター",                   "latitude":"35.719749", "longitude":"139.786054", "memo":"", "img":"" },
    { "no":"22",  "name":"入谷南公園",                         "latitude":"35.718293", "longitude":"139.785728", "memo":"", "img":"" },
    { "no":"23",  "name":"北上野",                             "latitude":"35.717655", "longitude":"139.784301", "memo":"", "img":"" },
    { "no":"24",  "name":"上野学園",                           "latitude":"35.715558", "longitude":"139.782484", "memo":"", "img":"" },
    { "no":"25",  "name":"台東保健所",                         "latitude":"35.713793", "longitude":"139.781359", "memo":"", "img":"" },
    { "no":"26",  "name":"台東区役所",                         "latitude":"35.712471", "longitude":"139.779651", "memo":"", "img":"" }
  ],
  "g_bus_station": [
    { "no":"1",   "name":"上野駅入谷口",                   "latitude":"35.714460", "longitude":"139.778443", "memo":"", "img":"" },
    { "no":"2",   "name":"上野郵便局",                     "latitude":"35.719048", "longitude":"139.780468", "memo":"", "img":"" },
    { "no":"3",   "name":"根岸三丁目",                     "latitude":"35.721345", "longitude":"139.781873", "memo":"", "img":"" },
    { "no":"4",   "name":"下谷三丁目",                     "latitude":"35.724598", "longitude":"139.785384", "memo":"", "img":"" },
    { "no":"5",   "name":"一葉記念館",                     "latitude":"35.726493", "longitude":"139.790797", "memo":"", "img":"" },
    { "no":"6",   "name":"三ノ輪駅",                       "latitude":"35.729646", "longitude":"139.792536", "memo":"", "img":"" },
    { "no":"7",   "name":"三ノ輪二丁目",                   "latitude":"35.728024", "longitude":"139.794428", "memo":"", "img":"" },
    { "no":"8",   "name":"吉原大門",                       "latitude":"35.725162", "longitude":"139.796904", "memo":"", "img":"" },
    { "no":"9",   "name":"清川一丁目",                     "latitude":"35.726272", "longitude":"139.802097", "memo":"", "img":"" },
    { "no":"10",  "name":"清川清掃車庫",                   "latitude":"35.728080", "longitude":"139.805170", "memo":"", "img":"" },
    { "no":"11",  "name":"橋場二丁目",                     "latitude":"35.728515", "longitude":"139.806191", "memo":"", "img":"" },
    { "no":"12",  "name":"橋場二丁目アパート前",           "latitude":"35.727496", "longitude":"139.808551", "memo":"", "img":"" },
    { "no":"13",  "name":"橋場一丁目",                     "latitude":"35.725331", "longitude":"139.807903", "memo":"", "img":"" },
    { "no":"14",  "name":"東京都人権プラザ前",             "latitude":"35.722794", "longitude":"139.807361", "memo":"", "img":"" },
    { "no":"15",  "name":"桜橋中学校前",                   "latitude":"35.720107", "longitude":"139.806068", "memo":"", "img":"" },
    { "no":"16",  "name":"リバーサイドスポーツセンター前", "latitude":"35.718200", "longitude":"139.804435", "memo":"", "img":"" },
    { "no":"17",  "name":"浅草駅",                         "latitude":"35.711490", "longitude":"139.798427", "memo":"", "img":"" },
    { "no":"18",  "name":"雷門通り",                       "latitude":"35.711045", "longitude":"139.794377", "memo":"", "img":"" },
    { "no":"19",  "name":"田原町駅",                       "latitude":"35.710231", "longitude":"139.791740", "memo":"", "img":"" },
    { "no":"20",  "name":"寿三丁目",                       "latitude":"35.706979", "longitude":"139.791040", "memo":"", "img":"" },
    { "no":"21",  "name":"大江戸線蔵前駅",                 "latitude":"35.706131", "longitude":"139.789927", "memo":"", "img":"" },
    { "no":"22",  "name":"三筋児童遊園",                   "latitude":"35.704578", "longitude":"139.788092", "memo":"", "img":"" },
    { "no":"23",  "name":"環境ふれあい館・ひまわり入口",   "latitude":"35.702269", "longitude":"139.788068", "memo":"", "img":"" },
    { "no":"24",  "name":"鳥越神社前",                     "latitude":"35.701714", "longitude":"139.785075", "memo":"", "img":"" },
    { "no":"25",  "name":"浅草橋地区センター",             "latitude":"35.699401", "longitude":"139.783192", "memo":"", "img":"" },
    { "no":"26",  "name":"三井記念病院前",                 "latitude":"35.700361", "longitude":"139.777929", "memo":"", "img":"" },
    { "no":"27",  "name":"東京法務局台東出張所前",         "latitude":"35.701711", "longitude":"139.777031", "memo":"", "img":"" },
    { "no":"28",  "name":"台東二丁目",                     "latitude":"35.702924", "longitude":"139.781016", "memo":"", "img":"" },
    { "no":"29",  "name":"新御徒町駅",                     "latitude":"35.707347", "longitude":"139.781875", "memo":"", "img":"" },
    { "no":"30",  "name":"永寿総合病院東",                 "latitude":"35.709693", "longitude":"139.780249", "memo":"", "img":"" },
    { "no":"31",  "name":"台東区役所",                     "latitude":"35.712481", "longitude":"139.780750", "memo":"", "img":"" }
  ]
}
